{"meta":{"code":200},"notifications":[{"type":"notificationTray","item":{"unreadCount":3}}],"response":{"venues":[{"id":"4b56a5e8f964a5208e1728e3","name":"東京タワー (Tokyo Tower)","contact":{"phone":"0334335111","formattedPhone":"03-3433-5111"},"location":{"address":"芝公園4-2-8","lat":35.65856461606471,"lng":139.74547684192657,"distance":4,"postalCode":"105-0011","cc":"JP","city":"Minato","state":"Tōkyō-to","country":"Japan"},"categories":[{"id":"4bf58dd8d48988d12d941735","name":"Monument \/ Landmark","pluralName":"Monuments \/ Landmarks","shortName":"Landmark","icon":{"prefix":"https:\/\/ss1.4sqi.net\/img\/categories_v2\/building\/government_monument_","suffix":".png"},"primary":true}],"verified":false,"stats":{"checkinsCount":30225,"usersCount":20042,"tipCount":98},"url":"http:\/\/www.tokyotower.co.jp","specials":{"count":0,"items":[]},"hereNow":{"count":1,"summary":"1 people here","groups":[{"type":"others","name":"Other people here","count":1,"items":[]}]},"referralId":"v-1400551483"},{"id":"4be0feaac1732d7f67115b9a","name":"東京タワー 大展望台","contact":{},"location":{"address":"芝公園4-2-8","crossStreet":"150m","lat":35.65855936339402,"lng":139.74547867327624,"distance":4,"postalCode":"105-0011","cc":"JP","city":"Minato","state":"Tōkyō-to","country":"Japan"},"categories":[{"id":"4bf58dd8d48988d165941735","name":"Scenic Lookout","pluralName":"Scenic Lookouts","shortName":"Scenic Lookout","icon":{"prefix":"https:\/\/ss1.4sqi.net\/img\/categories_v2\/parks_outdoors\/sceniclookout_","suffix":".png"},"primary":true}],"verified":false,"stats":{"checkinsCount":2335,"usersCount":2123,"tipCount":8},"url":"http:\/\/www.tokyotower.co.jp\/observatory\/","specials":{"count":0,"items":[]},"hereNow":{"count":0,"summary":"0 people here","groups":[]},"referralId":"v-1400551483"},{"id":"4c6cbde046353704936907bc","name":"東京タワー 特別展望台","contact":{"phone":"0334335111","formattedPhone":"03-3433-5111"},"location":{"address":"芝公園4-2-8","crossStreet":"250m","lat":35.65856025744641,"lng":139.74547684192657,"distance":4,"postalCode":"105-0011","cc":"JP","city":"Minato","state":"Tōkyō-to","country":"Japan"},"categories":[{"id":"4bf58dd8d48988d165941735","name":"Scenic Lookout","pluralName":"Scenic Lookouts","shortName":"Scenic Lookout","icon":{"prefix":"https:\/\/ss1.4sqi.net\/img\/categories_v2\/parks_outdoors\/sceniclookout_","suffix":".png"},"primary":true}],"verified":false,"stats":{"checkinsCount":961,"usersCount":882,"tipCount":3},"url":"http:\/\/www.tokyotower.co.jp\/observatory\/index_03.html","specials":{"count":0,"items":[]},"hereNow":{"count":0,"summary":"0 people here","groups":[]},"referralId":"v-1400551483"},{"id":"4d33c8d2306160fc44ae6a88","name":"ピザーラエクスプレス 東京タワー店","contact":{"phone":"0357331600","formattedPhone":"03-5733-1600"},"location":{"address":"芝公園4-2-8","crossStreet":"東京タワー 2F","lat":35.658596776761065,"lng":139.74543164450907,"distance":1,"postalCode":"105-0011","cc":"JP","city":"Minato","state":"Tōkyō-to","country":"Japan"},"categories":[{"id":"4bf58dd8d48988d1ca941735","name":"Pizza Place","pluralName":"Pizza Places","shortName":"Pizza","icon":{"prefix":"https:\/\/ss1.4sqi.net\/img\/categories_v2\/food\/pizza_","suffix":".png"},"primary":true}],"verified":false,"stats":{"checkinsCount":100,"usersCount":60,"tipCount":0},"specials":{"count":0,"items":[]},"hereNow":{"count":0,"summary":"0 people here","groups":[]},"referralId":"v-1400551483"},{"id":"4b835cb0f964a520e60331e3","name":"珈琲館 CAFE DI ESPRESSO 東京タワー店","contact":{"phone":"0357762646","formattedPhone":"03-5776-2646"},"location":{"address":"芝公園4-2-8","crossStreet":"東京タワー2F","lat":35.65836847800488,"lng":139.74550902843475,"distance":24,"cc":"JP","city":"Minato","state":"Tōkyō-to","country":"Japan"},"categories":[{"id":"4bf58dd8d48988d1e0931735","name":"Coffee Shop","pluralName":"Coffee Shops","shortName":"Coffee Shop","icon":{"prefix":"https:\/\/ss1.4sqi.net\/img\/categories_v2\/food\/coffeeshop_","suffix":".png"},"primary":true}],"verified":false,"stats":{"checkinsCount":487,"usersCount":145,"tipCount":4},"specials":{"count":0,"items":[]},"hereNow":{"count":0,"summary":"0 people here","groups":[]},"referralId":"v-1400551483"},{"id":"5013740ce4b0c3d5914cfc1a","name":"The Place of Tokyo","contact":{"phone":"0357336788","formattedPhone":"03-5733-6788"},"location":{"address":"芝公園3-5-4","lat":35.65890762998164,"lng":139.7455214653257,"distance":37,"postalCode":"105-0011","cc":"JP","country":"Japan"},"categories":[{"id":"4bf58dd8d48988d171941735","name":"Event Space","pluralName":"Event Spaces","shortName":"Event Space","icon":{"prefix":"https:\/\/ss1.4sqi.net\/img\/categories_v2\/building\/eventspace_","suffix":".png"},"primary":true}],"verified":false,"stats":{"checkinsCount":245,"usersCount":201,"tipCount":4},"specials":{"count":0,"items":[]},"hereNow":{"count":0,"summary":"0 people here","groups":[]},"referralId":"v-1400551483"},{"id":"4b934800f964a5206b3e34e3","name":"東京タワー水族館 (Tokyo Tower Aquarium)","contact":{"phone":"0334335111","formattedPhone":"03-3433-5111"},"location":{"address":"芝公園4-2-8","crossStreet":"東京タワー 1F","lat":35.65867137834208,"lng":139.74565120674544,"distance":22,"postalCode":"105-0011","cc":"JP","city":"Minato","state":"Tōkyō-to","country":"Japan"},"categories":[{"id":"4fceea171983d5d06c3e9823","name":"Aquarium","pluralName":"Aquariums","shortName":"Aquarium","icon":{"prefix":"https:\/\/ss1.4sqi.net\/img\/categories_v2\/arts_entertainment\/aquarium_","suffix":".png"},"primary":true}],"verified":false,"stats":{"checkinsCount":198,"usersCount":186,"tipCount":1},"specials":{"count":0,"items":[]},"hereNow":{"count":0,"summary":"0 people here","groups":[]},"referralId":"v-1400551483"},{"id":"4e82849bd22dc33e80e21919","name":"東京タワー フードコート","contact":{},"location":{"address":"芝公園4-2-8","crossStreet":"東京タワーフットタウン2F","lat":35.65851667125014,"lng":139.74520325660706,"distance":21,"cc":"JP","city":"Minato","state":"Tōkyō-to","country":"Japan"},"categories":[{"id":"4bf58dd8d48988d120951735","name":"Food Court","pluralName":"Food Courts","shortName":"Food Court","icon":{"prefix":"https:\/\/ss1.4sqi.net\/img\/categories_v2\/shops\/food_foodcourt_","suffix":".png"},"primary":true}],"verified":false,"stats":{"checkinsCount":197,"usersCount":148,"tipCount":0},"specials":{"count":0,"items":[]},"hereNow":{"count":0,"summary":"0 people here","groups":[]},"referralId":"v-1400551483"},{"id":"51c42b39498e2a060888338d","name":"東京タワー フットタウン","contact":{},"location":{"address":"芝公園4-2-8","crossStreet":"1F-4F\/RF","lat":35.658735641146826,"lng":139.7455214653257,"distance":19,"postalCode":"105-0011","cc":"JP","city":"Minato","state":"Tōkyō-to","country":"Japan"},"categories":[{"id":"4bf58dd8d48988d1ff941735","name":"Miscellaneous Shop","pluralName":"Miscellaneous Shops","shortName":"Shop","icon":{"prefix":"https:\/\/ss1.4sqi.net\/img\/categories_v2\/shops\/default_","suffix":".png"},"primary":true}],"verified":false,"stats":{"checkinsCount":55,"usersCount":53,"tipCount":0},"url":"http:\/\/www.tokyotower.co.jp\/foottown\/","specials":{"count":0,"items":[]},"hereNow":{"count":0,"summary":"0 people here","groups":[]},"referralId":"v-1400551483"},{"id":"4be8bae1fbbb9c74bf2c1e8e","name":"東京カレーラボ (TOKYO CURRY LAB.)","contact":{"phone":"0354252900","formattedPhone":"03-5425-2900","twitter":"tokyocurrylab"},"location":{"address":"芝公園4-2-8","crossStreet":"東京タワー2階","lat":35.658847,"lng":139.745594,"distance":33,"postalCode":"105-0011","cc":"JP","city":"Minato","state":"Tōkyō-to","country":"Japan"},"categories":[{"id":"4bf58dd8d48988d10f941735","name":"Indian Restaurant","pluralName":"Indian Restaurants","shortName":"Indian","icon":{"prefix":"https:\/\/ss1.4sqi.net\/img\/categories_v2\/food\/indian_","suffix":".png"},"primary":true}],"verified":true,"stats":{"checkinsCount":469,"usersCount":361,"tipCount":10},"url":"http:\/\/www.orange-p.co.jp\/currylab\/","specials":{"count":1,"items":[{"id":"4be8bb4386ba62b5a67c88b3","type":"frequency","message":"Dear Foursquare users, \r\nWelcome to Tokyo's #1 curry house, TOKYO CURRY LAB.\r\nWe offer you \"FREE Fried-Egg for your FIRST check-in!\" \r\nCome and check our shop in Tokyo Tower's 2nd floor!","description":"Unlocked every check-in","icon":"check-in","title":"Check-in Special","provider":"foursquare","redemption":"standard"}]},"hereNow":{"count":0,"summary":"0 people here","groups":[]},"referralId":"v-1400551483"},{"id":"4b9c9c8cf964a520bc7236e3","name":"サーティワン アイスクリーム 東京タワー店","contact":{"phone":"0334320531","formattedPhone":"03-3432-0531"},"location":{"address":"芝公園4-2-8","crossStreet":"東京タワービル2Ｆ","lat":35.65846436778322,"lng":139.7456431388855,"distance":22,"postalCode":"105-0011","cc":"JP","city":"Minato","state":"Tōkyō-to","country":"Japan"},"categories":[{"id":"4bf58dd8d48988d1c9941735","name":"Ice Cream Shop","pluralName":"Ice Cream Shops","shortName":"Ice Cream","icon":{"prefix":"https:\/\/ss1.4sqi.net\/img\/categories_v2\/food\/icecream_","suffix":".png"},"primary":true}],"verified":false,"stats":{"checkinsCount":124,"usersCount":94,"tipCount":0},"url":"http:\/\/www.31ice.co.jp","specials":{"count":0,"items":[]},"hereNow":{"count":0,"summary":"0 people here","groups":[]},"referralId":"v-1400551483"},{"id":"502b0991e4b0a87aac1de640","name":"タワー大神宮","contact":{},"location":{"address":"芝公園4丁目2-8","crossStreet":"東京タワー 大展望台2階","lat":35.65863871253972,"lng":139.7454285621643,"distance":6,"cc":"JP","city":"Minato","state":"Tōkyō-to","country":"Japan"},"categories":[{"id":"4eb1d80a4b900d56c88a45ff","name":"Shrine","pluralName":"Shrines","shortName":"Shrine","icon":{"prefix":"https:\/\/ss1.4sqi.net\/img\/categories_v2\/building\/religious_shrine_","suffix":".png"},"primary":true}],"verified":false,"stats":{"checkinsCount":15,"usersCount":15,"tipCount":1},"specials":{"count":0,"items":[]},"hereNow":{"count":0,"summary":"0 people here","groups":[]},"referralId":"v-1400551483"},{"id":"4e7be447b61c3834b8dc72aa","name":"マザー牧場カフェ 東京タワー店","contact":{"phone":"0366660333","formattedPhone":"03-6666-0333"},"location":{"address":"芝公園4丁目2-8","crossStreet":"東京タワーフットタウン3階","lat":35.658555898827835,"lng":139.74547684192657,"distance":4,"postalCode":"105-0011","cc":"JP","city":"Minato","state":"Tōkyō-to","country":"Japan"},"categories":[{"id":"4bf58dd8d48988d16d941735","name":"Café","pluralName":"Cafés","shortName":"Café","icon":{"prefix":"https:\/\/ss1.4sqi.net\/img\/categories_v2\/food\/cafe_","suffix":".png"},"primary":true}],"verified":false,"stats":{"checkinsCount":70,"usersCount":67,"tipCount":2},"specials":{"count":0,"items":[]},"hereNow":{"count":0,"summary":"0 people here","groups":[]},"referralId":"v-1400551483"},{"id":"4ecb546499119fe1aded44fc","name":"rrrr","contact":{},"location":{"lat":35.658625,"lng":139.745415,"distance":5,"cc":"JP","country":"Japan"},"categories":[],"verified":false,"stats":{"checkinsCount":0,"usersCount":0,"tipCount":0},"specials":{"count":0,"items":[]},"hereNow":{"count":0,"summary":"0 people here","groups":[]},"referralId":"v-1400551483"},{"id":"4ee70b70490141636c3dd522","name":"Nannbyou","contact":{},"location":{"lat":35.65863205970822,"lng":139.74542166442671,"distance":5,"cc":"JP","country":"Japan"},"categories":[{"id":"4bf58dd8d48988d104941735","name":"Medical Center","pluralName":"Medical Centers","shortName":"Medical","icon":{"prefix":"https:\/\/ss1.4sqi.net\/img\/categories_v2\/building\/medical_","suffix":".png"},"primary":true}],"verified":false,"stats":{"checkinsCount":2,"usersCount":2,"tipCount":0},"specials":{"count":0,"items":[]},"hereNow":{"count":0,"summary":"0 people here","groups":[]},"referralId":"v-1400551483"},{"id":"4c330c17ed37a59312ab6c03","name":"タワシタ","contact":{"phone":"0335606649","formattedPhone":"03-3560-6649"},"location":{"address":"東麻布1-9-3","crossStreet":"赤石ビル 2階","lat":35.65849335183288,"lng":139.74531188363176,"distance":14,"cc":"JP","city":"Minato","state":"Tōkyō-to","country":"Japan"},"categories":[{"id":"4bf58dd8d48988d10c941735","name":"French Restaurant","pluralName":"French Restaurants","shortName":"French","icon":{"prefix":"https:\/\/ss1.4sqi.net\/img\/categories_v2\/food\/french_","suffix":".png"},"primary":true}],"verified":false,"stats":{"checkinsCount":110,"usersCount":97,"tipCount":2},"specials":{"count":0,"items":[]},"hereNow":{"count":0,"summary":"0 people here","groups":[]},"referralId":"v-1400551483"},{"id":"51e39635498eb5941bc93d51","name":"丹波屋 東京タワー店","contact":{},"location":{"address":"芝公園4-2-8","lat":35.658556,"lng":139.745234,"distance":18,"cc":"JP","state":"Tōkyō-to","country":"Japan"},"categories":[{"id":"4bf58dd8d48988d1df931735","name":"BBQ Joint","pluralName":"BBQ Joints","shortName":"BBQ","icon":{"prefix":"https:\/\/ss1.4sqi.net\/img\/categories_v2\/food\/bbq_","suffix":".png"},"primary":true}],"verified":false,"stats":{"checkinsCount":12,"usersCount":11,"tipCount":0},"specials":{"count":0,"items":[]},"hereNow":{"count":0,"summary":"0 people here","groups":[]},"referralId":"v-1400551483"},{"id":"4b9b6e69f964a520e80636e3","name":"Pink dot. 東京タワー店","contact":{"phone":"0357761845","formattedPhone":"03-5776-1845"},"location":{"address":"芝公園4-2-8","crossStreet":"東京タワーフットタウン2F","lat":35.65851973394507,"lng":139.74528693347943,"distance":14,"cc":"JP","city":"Minato","state":"Tōkyō-to","country":"Japan"},"categories":[{"id":"4bf58dd8d48988d1d0941735","name":"Dessert Shop","pluralName":"Dessert Shops","shortName":"Desserts","icon":{"prefix":"https:\/\/ss1.4sqi.net\/img\/categories_v2\/food\/dessert_","suffix":".png"},"primary":true}],"verified":false,"stats":{"checkinsCount":83,"usersCount":46,"tipCount":3},"specials":{"count":0,"items":[]},"hereNow":{"count":0,"summary":"0 people here","groups":[]},"referralId":"v-1400551483"},{"id":"51f4e41e498e8ac8c0c64778","name":"カフェ ラ・トゥール（CAFÉ la TOUR）","contact":{},"location":{"address":"芝公園４丁目２−８","crossStreet":"東京タワー 大展望台1階","lat":35.65848734821138,"lng":139.74547655490036,"distance":11,"cc":"JP","city":"Minato","state":"Tōkyō-to","country":"Japan"},"categories":[{"id":"4bf58dd8d48988d16d941735","name":"Café","pluralName":"Cafés","shortName":"Café","icon":{"prefix":"https:\/\/ss1.4sqi.net\/img\/categories_v2\/food\/cafe_","suffix":".png"},"primary":true}],"verified":false,"stats":{"checkinsCount":8,"usersCount":8,"tipCount":0},"specials":{"count":0,"items":[]},"hereNow":{"count":0,"summary":"0 people here","groups":[]},"referralId":"v-1400551483"},{"id":"4fe3167ee4b0675f958af230","name":"Dining&TerraceBar Hotel TANGO","contact":{},"location":{"address":"芝公園3-5-4","lat":35.65879960915436,"lng":139.74557635589173,"distance":27,"cc":"JP","city":"東京都港区","state":"日本","country":"Japan"},"categories":[{"id":"4bf58dd8d48988d157941735","name":"New American Restaurant","pluralName":"New American Restaurants","shortName":"New American","icon":{"prefix":"https:\/\/ss1.4sqi.net\/img\/categories_v2\/food\/default_","suffix":".png"},"primary":true}],"verified":false,"stats":{"checkinsCount":168,"usersCount":134,"tipCount":1},"specials":{"count":0,"items":[]},"hereNow":{"count":0,"summary":"0 people here","groups":[]},"referralId":"v-1400551483"},{"id":"4d898e3cbc848cfac599c52b","name":"太陽楼 東京タワーフットタウン店","contact":{"phone":"0357774850","formattedPhone":"03-5777-4850"},"location":{"address":"芝公園4-2-8","crossStreet":"東京タワー 2F","lat":35.65863871253972,"lng":139.74536418914795,"distance":9,"cc":"JP","city":"Minato","state":"Tōkyō-to","country":"Japan"},"categories":[{"id":"4bf58dd8d48988d145941735","name":"Chinese Restaurant","pluralName":"Chinese Restaurants","shortName":"Chinese","icon":{"prefix":"https:\/\/ss1.4sqi.net\/img\/categories_v2\/food\/chinese_","suffix":".png"},"primary":true}],"verified":false,"stats":{"checkinsCount":27,"usersCount":26,"tipCount":2},"specials":{"count":0,"items":[]},"hereNow":{"count":0,"summary":"0 people here","groups":[]},"referralId":"v-1400551483"},{"id":"4b5a721ef964a5209ac528e3","name":"マクドナルド 東京タワー店","contact":{"phone":"0334598246","formattedPhone":"03-3459-8246"},"location":{"address":"芝公園4-2-8","crossStreet":"東京タワー 2F","lat":35.65869973311459,"lng":139.7451227903366,"distance":31,"postalCode":"105-0011","cc":"JP","city":"Minato","state":"Tōkyō-to","country":"Japan"},"categories":[{"id":"4bf58dd8d48988d16e941735","name":"Fast Food Restaurant","pluralName":"Fast Food Restaurants","shortName":"Fast Food","icon":{"prefix":"https:\/\/ss1.4sqi.net\/img\/categories_v2\/food\/fastfood_","suffix":".png"},"primary":true}],"verified":false,"stats":{"checkinsCount":482,"usersCount":234,"tipCount":3},"url":"http:\/\/www.mcdonalds.co.jp\/shop\/map\/map.php?strcode=13877","specials":{"count":0,"items":[]},"hereNow":{"count":0,"summary":"0 people here","groups":[]},"referralId":"v-1400551483"},{"id":"506530a3e4b0bd91dfe0951c","name":"東京タワーフットタウン 屋上","contact":{},"location":{"address":"芝公園4-2-8","lat":35.658661,"lng":139.745455,"distance":9,"cc":"JP","city":"Minato","state":"Tōkyō-to","country":"Japan"},"categories":[{"id":"4bf58dd8d48988d171941735","name":"Event Space","pluralName":"Event Spaces","shortName":"Event Space","icon":{"prefix":"https:\/\/ss1.4sqi.net\/img\/categories_v2\/building\/eventspace_","suffix":".png"},"primary":true}],"verified":false,"stats":{"checkinsCount":31,"usersCount":30,"tipCount":0},"specials":{"count":0,"items":[]},"hereNow":{"count":0,"summary":"0 people here","groups":[]},"referralId":"v-1400551483"},{"id":"4db41e4f0cb6729b6a8d4729","name":"ヨカヨカカフェ","contact":{},"location":{"lat":35.65867137834208,"lng":139.7453967142282,"distance":10,"cc":"JP","country":"Japan"},"categories":[{"id":"4bf58dd8d48988d116941735","name":"Bar","pluralName":"Bars","shortName":"Bar","icon":{"prefix":"https:\/\/ss1.4sqi.net\/img\/categories_v2\/nightlife\/bar_","suffix":".png"},"primary":true}],"verified":false,"stats":{"checkinsCount":2,"usersCount":2,"tipCount":0},"specials":{"count":0,"items":[]},"hereNow":{"count":0,"summary":"0 people here","groups":[]},"referralId":"v-1400551483"},{"id":"506e5aa1e4b0a9ca4c0f4ce9","name":"club333","contact":{},"location":{"address":"芝公園4\u20102\u20108","crossStreet":"東京タワー 大展望台 1F 特設ステージ","lat":35.658467,"lng":139.745578,"distance":18,"cc":"JP","city":"Minato","state":"Tōkyō-to","country":"Japan"},"categories":[{"id":"4bf58dd8d48988d11f941735","name":"Nightclub","pluralName":"Nightclubs","shortName":"Nightclub","icon":{"prefix":"https:\/\/ss1.4sqi.net\/img\/categories_v2\/nightlife\/nightclub_","suffix":".png"},"primary":true}],"verified":false,"stats":{"checkinsCount":81,"usersCount":48,"tipCount":0},"specials":{"count":0,"items":[]},"hereNow":{"count":0,"summary":"0 people here","groups":[]},"referralId":"v-1400551483"},{"id":"50d2e1d7498ebcf927cb7c0e","name":"LOVESPO TOKYO","contact":{},"location":{"address":"芝公園4-2-8","crossStreet":"東京タワーフットタウンビル 3F","lat":35.658735932127634,"lng":139.74526697336512,"distance":22,"cc":"JP","city":"Minato","state":"Tōkyō-to","country":"Japan"},"categories":[{"id":"4bf58dd8d48988d176941735","name":"Gym","pluralName":"Gyms","shortName":"Gym","icon":{"prefix":"https:\/\/ss1.4sqi.net\/img\/categories_v2\/building\/gym_","suffix":".png"},"primary":true}],"verified":false,"stats":{"checkinsCount":33,"usersCount":22,"tipCount":1},"specials":{"count":0,"items":[]},"hereNow":{"count":0,"summary":"0 people here","groups":[]},"referralId":"v-1400551483"},{"id":"4d731ce05f00370480cfeba0","name":"マリオンクレープ 東京タワー店","contact":{"phone":"0334381441","formattedPhone":"03-3438-1441"},"location":{"address":"芝公園4-2-8","crossStreet":"東京タワー内正面入口横","lat":35.65844693328663,"lng":139.74562168121338,"distance":22,"postalCode":"105-0011","cc":"JP","city":"Minato","state":"Tōkyō-to","country":"Japan"},"categories":[{"id":"52e81612bcbc57f1066b79f2","name":"Creperie","pluralName":"Creperies","shortName":"Creperie","icon":{"prefix":"https:\/\/ss1.4sqi.net\/img\/categories_v2\/food\/default_","suffix":".png"},"primary":true}],"verified":false,"stats":{"checkinsCount":55,"usersCount":53,"tipCount":0},"specials":{"count":0,"items":[]},"hereNow":{"count":0,"summary":"0 people here","groups":[]},"referralId":"v-1400551483"},{"id":"4f926222e4b08038d71454a7","name":"ノッポンのマジカルダンジョン","contact":{},"location":{"address":"港区","lat":35.658587,"lng":139.745567,"distance":12,"cc":"JP","country":"Japan"},"categories":[{"id":"4bf58dd8d48988d1f1931735","name":"General Entertainment","pluralName":"General Entertainment","shortName":"Entertainment","icon":{"prefix":"https:\/\/ss1.4sqi.net\/img\/categories_v2\/arts_entertainment\/default_","suffix":".png"},"primary":true}],"verified":false,"stats":{"checkinsCount":3,"usersCount":3,"tipCount":0},"specials":{"count":0,"items":[]},"hereNow":{"count":0,"summary":"0 people here","groups":[]},"referralId":"v-1400551483"},{"id":"502b6b47e4b0e9c18084b476","name":"Tokyo Tower Gift Shop","contact":{},"location":{"lat":35.658532,"lng":139.745638,"distance":19,"cc":"JP","country":"Japan"},"categories":[{"id":"4bf58dd8d48988d128951735","name":"Gift Shop","pluralName":"Gift Shops","shortName":"Gift Shop","icon":{"prefix":"https:\/\/ss1.4sqi.net\/img\/categories_v2\/shops\/giftshop_","suffix":".png"},"primary":true}],"verified":false,"stats":{"checkinsCount":43,"usersCount":41,"tipCount":1},"specials":{"count":0,"items":[]},"hereNow":{"count":0,"summary":"0 people here","groups":[]},"referralId":"v-1400551483"},{"id":"4e828a3d9adfb3b097fdc9ba","name":"UMEIYA (宇明屋) 東京タワー店","contact":{"phone":"0354037800","formattedPhone":"03-5403-7800"},"location":{"address":"芝公園4-2-8","crossStreet":"東京タワー2F","lat":35.65848180227598,"lng":139.74523544311523,"distance":20,"cc":"JP","city":"Minato","state":"Tōkyō-to","country":"Japan"},"categories":[{"id":"4bf58dd8d48988d1d1941735","name":"Ramen \/ Noodle House","pluralName":"Ramen \/ Noodle House","shortName":"Ramen \/ Noodles","icon":{"prefix":"https:\/\/ss1.4sqi.net\/img\/categories_v2\/food\/ramen_","suffix":".png"},"primary":true}],"verified":false,"stats":{"checkinsCount":28,"usersCount":21,"tipCount":0},"specials":{"count":0,"items":[]},"hereNow":{"count":0,"summary":"0 people here","groups":[]},"referralId":"v-1400551483"},{"id":"4c425fc5d7fad13a561d09da","name":"Noppon Land","contact":{},"location":{"address":"Tokyo Tower 4fl.","lat":35.658630173574835,"lng":139.74559631611015,"distance":15,"cc":"JP","city":"Minato","state":"Tōkyō-to","country":"Japan"},"categories":[{"id":"4bf58dd8d48988d1f1931735","name":"General Entertainment","pluralName":"General Entertainment","shortName":"Entertainment","icon":{"prefix":"https:\/\/ss1.4sqi.net\/img\/categories_v2\/arts_entertainment\/default_","suffix":".png"},"primary":true}],"verified":false,"stats":{"checkinsCount":22,"usersCount":10,"tipCount":0},"specials":{"count":0,"items":[]},"hereNow":{"count":0,"summary":"0 people here","groups":[]},"referralId":"v-1400551483"},{"id":"4dd2056c1838a7519651d673","name":"そば処 さつま","contact":{},"location":{"address":"芝公園4-2-8","crossStreet":"東京タワー","lat":35.65820344034991,"lng":139.74524701325754,"distance":45,"cc":"JP","city":"Minato","state":"Tōkyō-to","country":"Japan"},"categories":[{"id":"4bf58dd8d48988d111941735","name":"Japanese Restaurant","pluralName":"Japanese Restaurants","shortName":"Japanese","icon":{"prefix":"https:\/\/ss1.4sqi.net\/img\/categories_v2\/food\/japanese_","suffix":".png"},"primary":true}],"verified":false,"stats":{"checkinsCount":236,"usersCount":65,"tipCount":1},"specials":{"count":0,"items":[]},"hereNow":{"count":0,"summary":"0 people here","groups":[]},"referralId":"v-1400551483"},{"id":"4b5936a5f964a5209b8128e3","name":"機械振興会館","contact":{"phone":"0334348211","formattedPhone":"03-3434-8211"},"location":{"address":"芝公園 3-5-8","lat":35.65964990462143,"lng":139.7453212738037,"distance":119,"postalCode":"105-0011","cc":"JP","city":"Minato","state":"Tōkyō-to","country":"Japan"},"categories":[{"id":"4bf58dd8d48988d124941735","name":"Office","pluralName":"Offices","shortName":"Office","icon":{"prefix":"https:\/\/ss1.4sqi.net\/img\/categories_v2\/building\/default_","suffix":".png"},"primary":true}],"verified":false,"stats":{"checkinsCount":1410,"usersCount":563,"tipCount":4},"specials":{"count":0,"items":[]},"hereNow":{"count":0,"summary":"0 people here","groups":[]},"referralId":"v-1400551483"},{"id":"4e82ed535503bf4b0e90ffe5","name":"洋食デミランチ","contact":{"phone":"0357761845","formattedPhone":"03-5776-1845"},"location":{"address":"芝公園4-2-8","crossStreet":"東京タワーフットタウン2F","lat":35.65851667125014,"lng":139.74528908729553,"distance":14,"cc":"JP","city":"Minato","state":"Tōkyō-to","country":"Japan"},"categories":[{"id":"4bf58dd8d48988d1c4941735","name":"Restaurant","pluralName":"Restaurants","shortName":"Restaurant","icon":{"prefix":"https:\/\/ss1.4sqi.net\/img\/categories_v2\/food\/default_","suffix":".png"},"primary":true}],"verified":false,"stats":{"checkinsCount":10,"usersCount":10,"tipCount":0},"specials":{"count":0,"items":[]},"hereNow":{"count":0,"summary":"0 people here","groups":[]},"referralId":"v-1400551483"},{"id":"50cd3d1de4b05a3b9d702331","name":"東京タワー喫煙所","contact":{},"location":{"lat":35.658805,"lng":139.745412,"distance":25,"cc":"JP","country":"Japan"},"categories":[{"id":"4bf58dd8d48988d164941735","name":"Plaza","pluralName":"Plazas","shortName":"Plaza","icon":{"prefix":"https:\/\/ss1.4sqi.net\/img\/categories_v2\/parks_outdoors\/plaza_","suffix":".png"},"primary":true}],"verified":false,"stats":{"checkinsCount":3,"usersCount":2,"tipCount":0},"specials":{"count":0,"items":[]},"hereNow":{"count":0,"summary":"0 people here","groups":[]},"referralId":"v-1400551483"},{"id":"4b5a50d8f964a52096bc28e3","name":"東京芝 とうふ屋うかい","contact":{"phone":"0334361028","formattedPhone":"03-3436-1028"},"location":{"address":"芝公園4-4-13","lat":35.65739626288928,"lng":139.74523703320625,"distance":132,"postalCode":"105-0011","cc":"JP","city":"Minato","state":"Tōkyō-to","country":"Japan"},"categories":[{"id":"4bf58dd8d48988d111941735","name":"Japanese Restaurant","pluralName":"Japanese Restaurants","shortName":"Japanese","icon":{"prefix":"https:\/\/ss1.4sqi.net\/img\/categories_v2\/food\/japanese_","suffix":".png"},"primary":true}],"verified":false,"stats":{"checkinsCount":1193,"usersCount":972,"tipCount":17},"url":"http:\/\/www.ukai.co.jp\/shiba\/","specials":{"count":0,"items":[]},"hereNow":{"count":0,"summary":"0 people here","groups":[]},"referralId":"v-1400551483"},{"id":"52023469498e4b6fd73b3632","name":"藤子\u2022F\u2022不二雄展","contact":{},"location":{"address":"東京タワー","lat":35.65871284758714,"lng":139.74549651508522,"distance":15,"cc":"JP","country":"Japan"},"categories":[{"id":"4bf58dd8d48988d1f1931735","name":"General Entertainment","pluralName":"General Entertainment","shortName":"Entertainment","icon":{"prefix":"https:\/\/ss1.4sqi.net\/img\/categories_v2\/arts_entertainment\/default_","suffix":".png"},"primary":true}],"verified":false,"stats":{"checkinsCount":233,"usersCount":226,"tipCount":3},"specials":{"count":0,"items":[]},"hereNow":{"count":0,"summary":"0 people here","groups":[]},"referralId":"v-1400551483"},{"id":"4ca04e3d0df79c744ee22a1a","name":"クリスタルプラネット 東京タワー店","contact":{"phone":"0357762437","formattedPhone":"03-5776-2437"},"location":{"address":"芝公園4-2-8","crossStreet":"日本電波塔ビルディング 2F","lat":35.65872789404995,"lng":139.74552645537506,"distance":18,"postalCode":"105\u20100011","cc":"JP","city":"Minato","state":"Tōkyō-to","country":"Japan"},"categories":[{"id":"4bf58dd8d48988d111951735","name":"Jewelry Store","pluralName":"Jewelry Stores","shortName":"Jewelry","icon":{"prefix":"https:\/\/ss1.4sqi.net\/img\/categories_v2\/shops\/jewelry_","suffix":".png"},"primary":true}],"verified":false,"stats":{"checkinsCount":5,"usersCount":4,"tipCount":0},"specials":{"count":0,"items":[]},"hereNow":{"count":0,"summary":"0 people here","groups":[]},"referralId":"v-1400551483"},{"id":"4f7bc959e4b04f0337e64667","name":"東京タワーフットタウン3階イベントスペース","contact":{},"location":{"lat":35.65864036310063,"lng":139.74562126639262,"distance":18,"cc":"JP","country":"Japan"},"categories":[{"id":"4bf58dd8d48988d135941735","name":"Indie Theater","pluralName":"Indie Theaters","shortName":"Indie","icon":{"prefix":"https:\/\/ss1.4sqi.net\/img\/categories_v2\/arts_entertainment\/performingarts_indieoffbroadway_","suffix":".png"},"primary":true}],"verified":false,"stats":{"checkinsCount":7,"usersCount":6,"tipCount":0},"specials":{"count":0,"items":[]},"hereNow":{"count":0,"summary":"0 people here","groups":[]},"referralId":"v-1400551483"},{"id":"52482ac111d21ab059ecf123","name":"tomori","contact":{},"location":{"address":"芝公園3-5-4","lat":35.65873904614206,"lng":139.74534182382843,"distance":19,"postalCode":"150-0011","cc":"JP","city":"Minato","state":"Tōkyō-to","country":"Japan"},"categories":[{"id":"4bf58dd8d48988d116941735","name":"Bar","pluralName":"Bars","shortName":"Bar","icon":{"prefix":"https:\/\/ss1.4sqi.net\/img\/categories_v2\/nightlife\/bar_","suffix":".png"},"primary":true}],"verified":false,"stats":{"checkinsCount":1,"usersCount":1,"tipCount":0},"specials":{"count":0,"items":[]},"hereNow":{"count":0,"summary":"0 people here","groups":[]},"referralId":"v-1400551483"},{"id":"4d7311f1946b6dcb5d32477a","name":"ノッポンスクエア","contact":{},"location":{"lat":35.658603527170804,"lng":139.74564122662616,"distance":19,"cc":"JP","country":"Japan"},"categories":[],"verified":false,"stats":{"checkinsCount":11,"usersCount":11,"tipCount":1},"specials":{"count":0,"items":[]},"hereNow":{"count":0,"summary":"0 people here","groups":[]},"referralId":"v-1400551483"},{"id":"4f2a1be1e4b0a328b721848e","name":"TOKIO 333","contact":{"phone":"0357334781","formattedPhone":"03-5733-4781"},"location":{"lat":35.65856461606471,"lng":139.74567532539368,"distance":21,"cc":"JP","city":"Minato","state":"Tōkyō-to","country":"Japan"},"categories":[{"id":"4bf58dd8d48988d128951735","name":"Gift Shop","pluralName":"Gift Shops","shortName":"Gift Shop","icon":{"prefix":"https:\/\/ss1.4sqi.net\/img\/categories_v2\/shops\/giftshop_","suffix":".png"},"primary":true}],"verified":false,"stats":{"checkinsCount":6,"usersCount":6,"tipCount":0},"specials":{"count":0,"items":[]},"hereNow":{"count":0,"summary":"0 people here","groups":[]},"referralId":"v-1400551483"},{"id":"4bf9dbfb5317a593d1ff017f","name":"Tokyo Medical and Surgical Clinic","contact":{"phone":"0334363028","formattedPhone":"03-3436-3028"},"location":{"address":"芝公園3-4-30","crossStreet":"第32森ビル2F","lat":35.65889587036083,"lng":139.74639415740967,"distance":93,"postalCode":"105-0011","cc":"JP","city":"Minato","state":"Tōkyō-to","country":"Japan"},"categories":[{"id":"4bf58dd8d48988d104941735","name":"Medical Center","pluralName":"Medical Centers","shortName":"Medical","icon":{"prefix":"https:\/\/ss1.4sqi.net\/img\/categories_v2\/building\/medical_","suffix":".png"},"primary":true}],"verified":false,"stats":{"checkinsCount":160,"usersCount":74,"tipCount":1},"specials":{"count":0,"items":[]},"hereNow":{"count":0,"summary":"0 people here","groups":[]},"referralId":"v-1400551483"},{"id":"4b9ca65cf964a520877436e3","name":"東京タワースタジオ","contact":{},"location":{"address":"芝公園4-4-7","lat":35.65802976848252,"lng":139.74560130616578,"distance":63,"postalCode":"105-0011","cc":"JP","city":"Minato","state":"Tōkyō-to","country":"Japan"},"categories":[{"id":"4bf58dd8d48988d124941735","name":"Office","pluralName":"Offices","shortName":"Office","icon":{"prefix":"https:\/\/ss1.4sqi.net\/img\/categories_v2\/building\/default_","suffix":".png"},"primary":true}],"verified":false,"stats":{"checkinsCount":159,"usersCount":99,"tipCount":1},"specials":{"count":0,"items":[]},"hereNow":{"count":0,"summary":"0 people here","groups":[]},"referralId":"v-1400551483"},{"id":"500b9befe4b05322f1b9a5fd","name":"Crystal Planet","contact":{},"location":{"lat":35.65836901888962,"lng":139.74543663455086,"distance":23,"cc":"JP","country":"Japan"},"categories":[{"id":"4bf58dd8d48988d111951735","name":"Jewelry Store","pluralName":"Jewelry Stores","shortName":"Jewelry","icon":{"prefix":"https:\/\/ss1.4sqi.net\/img\/categories_v2\/shops\/jewelry_","suffix":".png"},"primary":true}],"verified":false,"stats":{"checkinsCount":8,"usersCount":8,"tipCount":0},"specials":{"count":0,"items":[]},"hereNow":{"count":0,"summary":"0 people here","groups":[]},"referralId":"v-1400551483"},{"id":"4c19fc05834e2d7fba252b80","name":"九四","contact":{},"location":{"lat":35.658793,"lng":139.745583,"distance":27,"cc":"JP","country":"Japan"},"categories":[],"verified":false,"stats":{"checkinsCount":3,"usersCount":3,"tipCount":1},"specials":{"count":0,"items":[]},"hereNow":{"count":0,"summary":"0 people here","groups":[]},"referralId":"v-1400551483"},{"id":"506530eee4b0cda932346cf5","name":"東京タワーフットタウン ガラスの広場","contact":{},"location":{"address":"芝公園4-2-8","crossStreet":"東京タワーフットタウン屋上","lat":35.65880164030493,"lng":139.74556637578505,"distance":27,"postalCode":"105-0011","cc":"JP","city":"Minato","state":"Tōkyō-to","country":"Japan"},"categories":[{"id":"4bf58dd8d48988d171941735","name":"Event Space","pluralName":"Event Spaces","shortName":"Event Space","icon":{"prefix":"https:\/\/ss1.4sqi.net\/img\/categories_v2\/building\/eventspace_","suffix":".png"},"primary":true}],"verified":false,"stats":{"checkinsCount":4,"usersCount":3,"tipCount":0},"specials":{"count":0,"items":[]},"hereNow":{"count":0,"summary":"0 people here","groups":[]},"referralId":"v-1400551483"},{"id":"51653028e4b0e029c94485f3","name":"日本聖公会 東京教区事務所","contact":{"phone":"0334330987","formattedPhone":"03-3433-0987"},"location":{"address":"芝公園3-6-1","lat":35.65878896835895,"lng":139.74570110736704,"distance":33,"postalCode":"105-0011","cc":"JP","city":"Minato","state":"Tōkyō-to","country":"Japan"},"categories":[{"id":"4bf58dd8d48988d124941735","name":"Office","pluralName":"Offices","shortName":"Office","icon":{"prefix":"https:\/\/ss1.4sqi.net\/img\/categories_v2\/building\/default_","suffix":".png"},"primary":true}],"verified":false,"stats":{"checkinsCount":9,"usersCount":1,"tipCount":0},"specials":{"count":0,"items":[]},"hereNow":{"count":0,"summary":"0 people here","groups":[]},"referralId":"v-1400551483"},{"id":"4cdca4b04006a1432f5fe0b2","name":"Cafe La Tour","contact":{},"location":{"address":"Tokyo Tower","lat":35.658234272715205,"lng":139.74521208308542,"distance":43,"cc":"JP","country":"Japan"},"categories":[{"id":"4bf58dd8d48988d16d941735","name":"Café","pluralName":"Cafés","shortName":"Café","icon":{"prefix":"https:\/\/ss1.4sqi.net\/img\/categories_v2\/food\/cafe_","suffix":".png"},"primary":true}],"verified":false,"stats":{"checkinsCount":70,"usersCount":70,"tipCount":3},"specials":{"count":0,"items":[]},"hereNow":{"count":0,"summary":"0 people here","groups":[]},"referralId":"v-1400551483"},{"id":"5344d059498e9846ac6cd9fe","name":"Patisserie Marion Crepes","contact":{},"location":{"lat":35.6582999322563,"lng":139.745696112514,"distance":39,"cc":"JP","city":"Tokyo","state":"Tōkyō-to","country":"Japan"},"categories":[{"id":"52e81612bcbc57f1066b79f2","name":"Creperie","pluralName":"Creperies","shortName":"Creperie","icon":{"prefix":"https:\/\/ss1.4sqi.net\/img\/categories_v2\/food\/default_","suffix":".png"},"primary":true}],"verified":false,"stats":{"checkinsCount":1,"usersCount":1,"tipCount":0},"specials":{"count":0,"items":[]},"hereNow":{"count":0,"summary":"0 people here","groups":[]},"referralId":"v-1400551483"}],"neighborhoods":[],"confident":true}}
